{
    "cafes": [{
        "name": "Asama",
        "lat": 18.7650241,
        "lon": 98.9531222,
        "espresso": true,
        "filter": false,
        "working": false,
        "price": "$$$",
        "osm": "4555359051",
        "addedtoosm": false,
        "url": "https://www.facebook.com/AsamaCafe",
        "date": "2018-09-24T10:04:01+0700"
    },
    {
        "name": "The Mellow",
        "lat": 18.4129973,
        "lon": 98.7043439,
        "espresso": true,
        "filter": false,
        "working": true,
        "price": "$",
        "osm": "5925629982",
        "addedtoosm": true,
        "url": "https://www.facebook.com/themellowcnx/",
        "date": "2018-09-24T10:08:05+0700"
    },
    {
        "name": "Youngfolk",
        "lat": 18.4149569,
        "lon": 98.6815692,
        "espresso": true,
        "filter": false,
        "working": true,
        "price": "$",
        "osm": "5925629983",
        "addedtoosm": true,
        "url": "https://www.facebook.com/YoungfolkcafeChiangmai",
        "date": "2018-09-24T10:08:05+0700"
    },
    {
        "name": "Omnia",
        "lat": 18.8136656,
        "lon": 98.9737922,
        "espresso": true,
        "filter": true,
        "working": true,
        "price": "$$",
        "osm": "4265502391",
        "addedtoosm": false,
        "url": "https://www.facebook.com/OmniaCafeChiangmai/",
        "date": "2018-09-24T10:08:05+0700"
    },
    {
        "name": "Brewman",
        "lat": 16.0643013,
        "lon": 108.2229858,
        "espresso": true,
        "filter": true,
        "working": true,
        "price": "$$",
        "osm": "https://www.openstreetmap.org/node/5920089202",
        "addedtoosm": true,
        "url": "https://www.facebook.com/BrewmanCoffeeConcept/",
        "date": "2018-09-24T10:08:05+0700"
    },
    {
        "name": "Why",
        "lat": 16.0513778,
        "lon": 108.2406334,
        "espresso": true,
        "filter": true,
        "working": true,
        "price": "$$",
        "osm": "https://www.openstreetmap.org/node/5920067081",
        "addedtoosm": true,
        "url": "https://www.facebook.com/WhyRoastery/",
        "date": "2018-09-24T10:08:05+0700"
    },
    {
        "name": "Cong Kopi",
        "lat": 16.0657749,
        "lon": 108.2211071,
        "espresso": true,
        "filter": true,
        "working": false,
        "price": "$$",
        "osm": "https://www.openstreetmap.org/node/5920056999",
        "addedtoosm": true,
        "url": "https://www.facebook.com/congkopi/",
        "date": "2018-09-24T10:08:05+0700"
    },
    {
        "name": "Gold Star",
        "lat": 16.0466175,
        "lon": 108.2418665,
        "espresso": true,
        "filter": true,
        "working": true,
        "price": "$$",
        "osm": "https://www.openstreetmap.org/node/5920045519",
        "addedtoosm": true,
        "url": "https://www.facebook.com/goldstarcoffeeroastery/",
        "date": "2018-09-24T10:08:05+0700"
    },
    {
        "name": "Six On Six",
        "lat": 16.0428676,
        "lon": 108.2447261,
        "espresso": true,
        "filter": true,
        "working": true,
        "price": "$$$",
        "osm": "https://www.openstreetmap.org/node/5432960921",
        "addedtoosm": false,
        "url": "http://www.sixonsix.net/",
        "date": "2018-09-24T10:08:05+0700"
    },
    {
        "name": "Thor Phan",
        "lat": 18.7886898,
        "lon": 98.9802287,
        "espresso": true,
        "filter": true,
        "working": true,
        "price": "$$",
        "osm": "https://www.openstreetmap.org/node/3388701190",
        "addedtoosm": false,
        "url": "https://www.facebook.com/ThorphanCoffee/",
        "date": "2018-09-24T10:08:05+0700"
    },
    {
        "name": "ZMOY",
        "lat": 18.7934646,
        "lon": 98.9904108,
        "espresso": true,
        "filter": true,
        "working": true,
        "price": "$",
        "osm": "https://www.openstreetmap.org/node/5919670289",
        "addedtoosm": true,
        "url": "https://www.facebook.com/zmoycafe/",
        "date": "2018-09-24T10:08:05+0700"
    },
    {
        "name": "POSREST",
        "lat": 18.7947770,
        "lon": 98.9649403,
        "espresso": true,
        "filter": true,
        "working": true,
        "price": "$$$",
        "osm": "https://www.openstreetmap.org/node/5917955982",
        "addedtoosm": true,
        "url": "https://www.facebook.com/posrestpremiumhandcraft/",
        "date": "2018-09-24T10:08:05+0700"
    },
    {
        "name": "A.B.C.D.",
        "lat": 18.7963749,
        "lon": 98.9768205,
        "espresso": true,
        "filter": false,
        "working": true,
        "price": "$$",
        "osm": "https://www.openstreetmap.org/node/5915461228",
        "addedtoosm": true,
        "url": "https://www.facebook.com/ABCD.CNX/",
        "date": "2018-09-24T10:08:05+0700"
    },
    {
        "name": "Taste",
        "lat": 18.7951655,
        "lon": 98.9630869,
        "espresso": true,
        "filter": true,
        "working": true,
        "price": "$$",
        "osm": "https://www.openstreetmap.org/node/5202076922",
        "addedtoosm": false,
        "url": "https://www.facebook.com/Taste.Cafe.chiangmai/",
        "date": "2018-09-24T10:08:05+0700"
    },
    {
        "name": "Akha Ama",
        "lat": 18.8032255,
        "lon": 98.9800245,
        "espresso": true,
        "filter": true,
        "working": true,
        "price": "$$",
        "osm": "https://www.openstreetmap.org/node/2527662833",
        "addedtoosm": false,
        "url": "http://www.akhaama.com/",
        "date": "2018-09-24T10:08:05+0700"
    },
    {
        "name": "Cottontree",
        "lat": 18.8042812,
        "lon": 98.9678609,
        "espresso": true,
        "filter": true,
        "working": true,
        "price": "$$$",
        "osm": "https://www.openstreetmap.org/node/4265515989",
        "addedtoosm": false,
        "url": "https://www.facebook.com/cottontreecnx/",
        "date": "2018-09-24T10:08:05+0700"
    }]
}
