{
    "cafes": [{
        "name": "Omnia",
        "lat": 18,8136656,
        "lon": 98,9737922,
        "espresso": true,
        "filter": true,
        "working": true,
        "price": "$$",
        "osm": "https://www.openstreetmap.org/node/4265502391",
        "addedtoosm": true,
        "url": "https://www.facebook.com/OmniaCafeChiangmai/"
    },
    {
        "name": "Brewman",
        "lat": 16.0643013,
        "lon": 108.2229858,
        "espresso": true,
        "filter": true,
        "working": true,
        "price": "$$",
        "osm": "https://www.openstreetmap.org/node/5920089202",
        "addedtoosm": true,
        "url": "https://www.facebook.com/BrewmanCoffeeConcept/"
    },
    {
        "name": "Why",
        "lat": 16.0513778,
        "lon": 108.2406334,
        "espresso": true,
        "filter": true,
        "working": true,
        "price": "$$",
        "osm": "https://www.openstreetmap.org/node/5920067081",
        "addedtoosm": true,
        "url": "https://www.facebook.com/WhyRoastery/"
    },
    {
        "name": "Cong Kopi",
        "lat": 16.0657749,
        "lon": 108.2211071,
        "espresso": true,
        "filter": true,
        "working": false,
        "price": "$$",
        "osm": "https://www.openstreetmap.org/node/5920056999",
        "addedtoosm": true,
        "url": "https://www.facebook.com/congkopi/"
    },
    {
        "name": "Gold Star",
        "lat": 16.0466175,
        "lon": 108.2418665,
        "espresso": true,
        "filter": true,
        "working": true,
        "price": "$$",
        "osm": "https://www.openstreetmap.org/node/5920045519",
        "addedtoosm": true,
        "url": "https://www.facebook.com/goldstarcoffeeroastery/"
    },
    {
        "name": "Six On Six",
        "lat": 16.0428676,
        "lon": 108.2447261,
        "espresso": true,
        "filter": true,
        "working": true,
        "price": "$$$",
        "osm": "https://www.openstreetmap.org/node/5432960921",
        "addedtoosm": false,
        "url": "http://www.sixonsix.net/"
    },
    {
        "name": "Thor Phan",
        "lat": 18.7886898,
        "lon": 98.9802287,
        "espresso": true,
        "filter": true,
        "working": true,
        "price": "$$",
        "osm": "https://www.openstreetmap.org/node/3388701190",
        "addedtoosm": false,
        "url": "https://www.facebook.com/ThorphanCoffee/"
    },
    {
        "name": "ZMOY",
        "lat": 18.7934646,
        "lon": 98.9904108,
        "espresso": true,
        "filter": true,
        "working": true,
        "price": "$",
        "osm": "https://www.openstreetmap.org/node/5919670289",
        "addedtoosm": true,
        "url": "https://www.facebook.com/zmoycafe/"
    },
    {
        "name": "POSREST",
        "lat": 18.7947770,
        "lon": 98.9649403,
        "espresso": true,
        "filter": true,
        "working": true,
        "price": "$$$",
        "osm": "https://www.openstreetmap.org/node/5917955982",
        "addedtoosm": true,
        "url": "https://www.facebook.com/posrestpremiumhandcraft/"
    },
    {
        "name": "A.B.C.D.",
        "lat": 18.7963749,
        "lon": 98.9768205,
        "espresso": true,
        "filter": false,
        "working": true,
        "price": "$$",
        "osm": "https://www.openstreetmap.org/node/5915461228",
        "addedtoosm": true,
        "url": "https://www.facebook.com/ABCD.CNX/"
    },
    {
        "name": "Taste",
        "lat": 18.7951655,
        "lon": 98.9630869,
        "espresso": true,
        "filter": true,
        "working": true,
        "price": "$$",
        "osm": "https://www.openstreetmap.org/node/5202076922",
        "addedtoosm": false,
        "url": "https://www.facebook.com/Taste.Cafe.chiangmai/"
    },
    {
        "name": "Akha Ama",
        "lat": 18.8032255,
        "lon": 98.9800245,
        "espresso": true,
        "filter": true,
        "working": true,
        "price": "$$",
        "osm": "https://www.openstreetmap.org/node/2527662833",
        "addedtoosm": false,
        "url": "http://www.akhaama.com/"
    },
    {
        "name": "Cottontree",
        "lat": 18.8042812,
        "lon": 98.9678609,
        "espresso": true,
        "filter": true,
        "working": true,
        "price": "$$$",
        "osm": "https://www.openstreetmap.org/node/4265515989",
        "addedtoosm": false,
        "url": "https://www.facebook.com/cottontreecnx/"
    }]
}
