{
    "cafes": [{
        "name": "Thor Phan",
        "lat": 18.7886898,
        "lon": 98.9802287,
        "espresso": true,
        "filter": true,
        "working": true,
        "price": "$$",
        "osm": "https://www.openstreetmap.org/node/3388701190",
        "addedtoosm": false,
        "url": "https://www.facebook.com/ThorphanCoffee"
    },
    {
        "name": "ZMOY CAFE",
        "lat": 18.7934646,
        "lon": 98.9904108,
        "espresso": true,
        "filter": true,
        "working": true,
        "price": "$",
        "osm": "https://www.openstreetmap.org/node/5919670289",
        "addedtoosm": true,
        "url": "https://www.facebook.com/zmoycafe"
    },
    {
        "name": "POSREST",
        "lat": 18.7947770,
        "lon": 98.9649403,
        "espresso": true,
        "filter": true,
        "working": true,
        "price": "$$$",
        "osm": "https://www.openstreetmap.org/node/5917955982",
        "addedtoosm": true,
        "url": "https://www.facebook.com/posrestpremiumhandcraft/"
    },
    {
        "name": "A.B.C.D.",
        "lat": 18.7963749,
        "lon": 98.9768205,
        "espresso": true,
        "filter": false,
        "working": true,
        "price": "$$",
        "osm": "https://www.openstreetmap.org/node/5915461228",
        "addedtoosm": true,
        "url": "https://www.facebook.com/ABCD.CNX/"
    },
    {
        "name": "Taste",
        "lat": 18.7951655,
        "lon": 98.9630869,
        "espresso": true,
        "filter": true,
        "working": true,
        "price": "$$",
        "osm": "https://www.openstreetmap.org/node/5202076922",
        "addedtoosm": false,
        "url": "https://www.facebook.com/Taste.Cafe.chiangmai/"
    },
    {
        "name": "Akha Ama",
        "lat": 18.8032255,
        "lon": 98.9800245,
        "espresso": true,
        "filter": true,
        "working": true,
        "price": "$$",
        "osm": "https://www.openstreetmap.org/node/2527662833",
        "addedtoosm": false,
        "url": "http://www.akhaama.com/"
    },
    {
        "name": "Cottontree",
        "lat": 18.8042812,
        "lon": 98.9678609,
        "espresso": true,
        "filter": true,
        "working": true,
        "price": "$$$",
        "osm": "https://www.openstreetmap.org/node/4265515989",
        "addedtoosm": false,
        "url": "https://www.facebook.com/cottontreecnx/"
    }]
}
